City_ID,City,Lat,Lng,Max Temp,Humidity,Cloudiness,Wind Speed,Country,Date
0,arkhangel'sk,64.5401,40.5433,13.06,100,100,2.0,RU,1722314019
1,villa gesell,-37.2639,-56.973,3.36,81,36,5.27,AR,1722314020
2,susuman,62.7833,148.1667,21.54,36,42,6.93,RU,1722314021
3,cooma,-36.2333,149.1333,7.69,54,6,3.74,AU,1722314023
4,adamstown,-25.066,-130.1015,21.46,88,0,6.59,PN,1722314024
5,porbandar,21.6422,69.6093,27.99,89,100,4.63,IN,1722314025
6,motygino,58.1831,94.7592,21.19,87,100,1.57,RU,1722314026
7,bethel,41.3712,-73.414,21.46,93,20,0.0,US,1722314027
8,correntina,-13.3433,-44.6367,19.63,57,0,1.8,BR,1722314029
9,port-aux-francais,-49.35,70.2167,1.07,64,92,8.02,TF,1722314030
10,kapuskasing,49.4169,-82.4331,21.05,100,100,1.54,CA,1722314031
11,grytviken,-54.2811,-36.5092,-4.77,74,83,4.84,GS,1722314032
12,shchuchinsk,52.9333,70.2,20.14,51,52,5.36,KZ,1722314033
13,blackmans bay,-43.0167,147.3167,11.52,67,99,0.45,AU,1722314035
14,tazovsky,67.4667,78.7,18.3,90,100,6.6,RU,1722314036
15,albany,42.6001,-73.9662,20.51,92,76,1.22,US,1722314037
16,allen,41.0706,-85.0144,24.08,91,100,3.6,US,1722314038
17,puerto ayora,-0.7393,-90.3518,19.75,97,70,0.89,EC,1722314039
18,salinopolis,-0.6136,-47.3561,26.42,80,5,4.96,BR,1722314041
19,n'zeto,-7.2312,12.8666,19.43,89,64,3.02,AO,1722314042
20,madinat ash shamal,26.1293,51.2009,35.09,45,80,1.98,QA,1722314043
21,tiksi,71.6872,128.8694,3.38,96,100,3.93,RU,1722314044
22,edinburgh of the seven seas,-37.0676,-12.3116,14.0,90,95,10.28,SH,1722314046
23,roscrea,52.9511,-7.8017,13.06,93,35,1.13,IE,1722314047
24,mil'kovo,55.6078,37.7956,17.95,81,97,1.91,RU,1722314048
25,chom thong,18.4174,98.6743,28.14,66,100,1.97,TH,1722314049
26,rio grande,-32.035,-52.0986,3.3,71,14,2.95,BR,1722314052
27,waitangi,-43.9535,-176.5597,12.12,98,100,2.24,NZ,1722314053
28,mananara,-16.1667,49.7667,21.66,74,45,1.13,MG,1722314054
29,nadi,-17.8,177.4167,26.0,53,40,5.14,FJ,1722314045
30,chui,-33.6971,-53.4616,4.5,77,35,1.24,UY,1722314057
31,korla,41.7597,86.1469,37.52,16,0,3.91,CN,1722314058
32,chernyshevskiy,63.0128,112.4714,18.43,37,0,3.94,RU,1722314059
33,polyarnyy,69.1989,33.4478,10.38,88,100,6.71,RU,1722314060
34,san antonio oeste,-40.7319,-64.9477,8.35,40,100,9.67,AR,1722314061
35,jinxiang,27.4327,120.6062,30.1,78,33,4.49,CN,1722314063
36,nantucket,41.2835,-70.0995,22.27,88,100,5.66,US,1722314064
37,thompson,55.7435,-97.8558,19.09,88,75,0.0,CA,1722314065
38,bodo,67.28,14.405,12.19,100,0,1.54,NO,1722314066
39,brookings,44.3114,-96.7984,26.0,84,0,5.14,US,1722313990
40,ta`u,-14.2336,-169.5144,25.01,63,87,12.38,AS,1722314069
41,misawa,40.6836,141.3597,28.11,59,2,5.98,JP,1722314070
42,west island,-12.1568,96.8225,28.99,74,20,8.75,CC,1722314071
43,revuca,48.6835,20.1173,11.48,67,3,2.02,SK,1722314072
44,hammerfest,70.6634,23.6821,10.25,100,75,3.09,NO,1722314074
45,wailua homesteads,22.0669,-159.378,23.19,89,100,3.6,US,1722314075
46,laojunmiao,39.8333,97.7333,30.21,13,17,10.36,CN,1722314076
47,soure,-0.7167,-48.5233,26.36,81,18,4.67,BR,1722314077
48,jiuquan,39.7432,98.5174,35.42,11,62,7.37,CN,1722314078
49,olonkinbyen,70.9221,-8.7187,5.02,96,68,9.35,SJ,1722314080
50,ushuaia,-54.8,-68.3,0.81,86,100,8.23,AR,1722314081
51,coquimbo,-29.9533,-71.3436,10.85,100,100,2.06,CL,1722314082
52,severo-yeniseyskiy,60.3725,93.0408,16.69,97,100,1.62,RU,1722314083
53,kingston,17.997,-76.7936,29.53,79,20,2.57,JM,1722314085
54,san patricio,28.017,-97.5169,29.38,83,2,6.1,US,1722314086
55,yellowknife,62.456,-114.3525,17.29,63,75,2.57,CA,1722314087
56,hawaiian paradise park,19.5933,-154.9731,25.41,78,100,0.89,US,1722314088
57,krasnoye-na-volge,57.5125,41.2419,15.55,95,100,3.06,RU,1722314090
58,jamestown,42.097,-79.2353,22.06,100,75,0.0,US,1722313944
59,port mathurin,-19.6833,63.4167,22.04,70,78,6.84,MU,1722314092
60,christchurch,-43.5333,172.6333,6.11,94,75,8.75,NZ,1722314094
61,peruibe,-24.32,-46.9983,16.5,95,100,3.22,BR,1722314095
62,taroa,8.7058,171.2275,28.15,78,99,8.68,MH,1722314097
63,leava,-14.3,-178.1667,26.25,59,13,10.11,WF,1722314098
64,brades,16.7918,-62.2106,27.78,74,1,8.0,MS,1722314099
65,lihue,21.9789,-159.3672,23.53,94,100,3.6,US,1722314100
66,baglung,28.2719,83.5898,28.87,70,54,2.4,NP,1722314102
67,petropavlovsk-kamchatsky,53.0452,158.6483,13.33,94,75,5.0,RU,1722313819
68,nar'yan-mar,67.6713,53.087,16.21,65,99,5.21,RU,1722314104
69,urengoy,65.9667,78.3667,21.14,80,100,4.0,RU,1722314105
70,cabo san lucas,22.8909,-109.9124,32.61,68,0,5.34,MX,1722313775
71,richards bay,-28.783,32.0377,13.42,88,1,2.65,ZA,1722314107
72,puerto natales,-51.7236,-72.4875,1.68,95,98,1.11,CL,1722314109
73,ghormach,35.7306,63.7826,32.12,16,0,4.76,AF,1722314110
74,motueka,-41.1333,173.0167,10.61,94,100,3.34,NZ,1722314112
75,port macquarie,-31.4333,152.9167,16.61,63,50,3.58,AU,1722314113
76,cruzeiro do sul,-29.5128,-51.9853,10.29,93,94,1.67,BR,1722314115
77,touros,-5.1989,-35.4608,22.66,92,49,4.99,BR,1722314116
78,vadso,70.0744,29.7487,13.09,88,75,1.54,NO,1722314119
79,urangan,-25.3,152.9,16.85,59,0,9.41,AU,1722314120
80,yorkton,51.2167,-102.4677,20.91,78,0,3.6,CA,1722313976
81,kuala terengganu,5.3302,103.1408,30.97,79,20,1.54,MY,1722314123
82,whitehorse,60.7161,-135.0538,16.43,50,75,4.63,CA,1722314124
83,vila franca do campo,37.7167,-25.4333,22.23,93,20,1.46,PT,1722314125
84,iqaluit,63.7506,-68.5145,4.85,80,20,2.06,CA,1722314126
85,necochea,-38.5473,-58.7368,1.59,49,5,4.72,AR,1722314127
86,nadym,65.5333,72.5167,21.12,74,100,3.89,RU,1722314129
87,san rafael,-34.6177,-68.3301,8.44,39,100,3.98,AR,1722313958
88,klyuchi,52.2667,79.1667,27.17,34,8,1.16,RU,1722314131
89,hermanus,-34.4187,19.2345,7.11,61,100,2.14,ZA,1722314132
90,kodiak,57.79,-152.4072,13.73,58,100,2.57,US,1722314133
91,aasiaat,68.7098,-52.8699,3.15,87,100,2.44,GL,1722314135
92,les anglais,18.3054,-74.2197,25.45,84,99,1.49,HT,1722314136
93,malango,-2.9627,119.9001,25.19,79,63,1.74,ID,1722314137
94,usogorsk,63.4106,48.6872,20.96,58,41,1.58,RU,1722314138
95,ginir,7.1333,40.7,16.56,81,100,2.89,ET,1722314139
96,constantia,44.1833,28.65,22.61,46,87,7.04,RO,1722314141
97,invercargill,-46.4,168.35,4.45,81,89,4.02,NZ,1722314142
98,dunedin,-45.8742,170.5036,5.45,62,100,2.24,NZ,1722314143
99,kibungo,-2.1597,30.5427,19.51,56,66,0.35,RW,1722314144
100,tura,25.5198,90.2201,29.58,77,92,2.89,IN,1722314145
101,kamaishi,39.2667,141.8833,29.8,60,55,4.56,JP,1722314147
102,pella,59.7775,30.8181,19.03,71,43,3.67,RU,1722314148
103,qarqaraly,49.4058,75.4742,23.09,27,58,1.63,KZ,1722314149
104,berezovyy,51.6667,135.7,25.09,51,4,2.35,RU,1722314150
105,la mira,18.035,-102.3266,26.46,86,97,1.31,MX,1722314152
106,kempsey,-31.0833,152.8333,16.08,59,56,4.47,AU,1722314153
107,kozel'sk,54.0375,35.7716,14.82,94,92,3.97,RU,1722314154
108,margaret river,-33.95,115.0667,16.67,71,10,3.95,AU,1722314155
109,sitka,57.0531,-135.33,15.94,77,100,1.54,US,1722314016
110,gobabis,-22.45,18.9667,8.38,18,23,5.04,NA,1722314157
111,barcelos,41.5388,-8.6151,25.47,62,65,0.64,PT,1722314159
112,sheregesh,52.9209,87.9869,25.38,45,100,0.77,RU,1722314160
113,talnakh,69.4865,88.3972,25.82,33,86,4.89,RU,1722314162
114,hadibu,12.65,54.0333,26.01,81,100,11.71,YE,1722314163
115,papatowai,-46.5619,169.4708,5.16,70,98,6.15,NZ,1722314165
116,anadyr,64.75,177.4833,16.28,67,40,5.0,RU,1722314167
117,alice springs,-23.7,133.8833,16.75,22,0,6.17,AU,1722314169
118,awjilah,29.1081,21.2869,26.01,60,0,4.85,LY,1722314170
119,ribeira grande,38.5167,-28.7,22.1,88,11,2.68,PT,1722314171
120,qingdao,36.0986,120.3719,34.78,66,40,6.0,CN,1722313860
121,tomatlan,19.9333,-105.25,23.97,94,98,1.33,MX,1722314174
122,pemangkat,1.1667,108.9667,29.43,71,51,5.38,ID,1722314175
123,vernal,40.4555,-109.5287,19.62,26,0,2.06,US,1722314176
124,bredasdorp,-34.5322,20.0403,8.52,82,100,2.09,ZA,1722314178
125,utrik,11.2278,169.8474,27.98,82,49,8.45,MH,1722314179
126,garden city,42.3256,-83.331,24.44,92,100,4.63,US,1722313886
127,keflavik,64.0049,-22.5624,10.24,100,75,3.09,IS,1722314181
128,dazhou,31.2159,107.5009,27.97,79,86,1.76,CN,1722314184
129,longyearbyen,78.2186,15.6401,7.91,93,75,3.6,SJ,1722313966
130,flying fish cove,-10.4217,105.6791,26.82,73,100,6.17,CX,1722314186
131,east ballina,-28.8667,153.5833,18.22,57,98,9.43,AU,1722314187
132,shingu,33.7333,135.9833,33.57,54,2,1.77,JP,1722314188
133,sao paulo de olivenca,-3.3783,-68.8725,23.34,86,27,1.02,BR,1722314190
134,beboto,8.2668,16.939,20.43,98,99,1.69,TD,1722314191
135,midvagur,62.0511,-7.1939,9.46,93,100,4.12,FO,1722314192
136,tejen,37.3834,60.5054,30.57,31,1,5.92,TM,1722314194
137,xinqing,48.2333,129.5,30.27,44,47,0.84,CN,1722314195
138,avarua,-21.2078,-159.775,20.03,56,40,4.12,CK,1722314196
139,porto velho,-8.7619,-63.9039,25.03,83,11,0.51,BR,1722314197
140,nova xavantina,-14.6667,-52.35,21.75,43,0,0.07,BR,1722314198
141,yeppoon,-23.1333,150.7333,19.88,52,0,6.31,AU,1722314201
142,san bernardo del viento,9.3533,-75.9524,27.94,85,26,4.05,CO,1722314202
143,sadovoye,47.7764,44.5089,28.0,42,7,2.67,RU,1722314203
144,qaqortoq,60.7167,-46.0333,7.95,86,100,5.1,GL,1722314205
145,fort st. john,56.2499,-120.8529,18.94,45,20,2.06,CA,1722314065
146,xai-xai,-25.0519,33.6442,14.89,79,0,2.59,MZ,1722314207
147,cha grande,-8.2383,-35.4617,18.34,98,72,2.82,BR,1722314210
148,jutai,-5.1833,-68.9,25.09,61,72,0.57,BR,1722314212
149,crocetta del montello,45.8367,12.0336,23.04,80,0,3.09,IT,1722314213
150,dryden,49.7833,-92.7503,21.16,73,0,1.54,CA,1722314214
151,kittila,67.6647,24.8936,13.12,88,100,4.12,FI,1722314215
152,babana,10.4295,3.815,22.13,97,99,2.09,NG,1722314217
153,lata,40.1629,-8.3327,19.49,83,20,1.23,PT,1722314218
154,nogliki,51.8333,143.1667,15.25,78,84,5.18,RU,1722314219
155,tingo maria,-9.2895,-76.0088,20.68,90,56,1.0,PE,1722314220
156,akjoujt,19.6969,-14.4164,28.4,39,1,3.85,MR,1722314222
157,mar del plata,-38.0023,-57.5575,4.01,73,0,4.63,AR,1722314223
158,uturoa,-16.7333,-151.4333,23.56,88,94,7.72,PF,1722314224
159,sakaiminato,35.55,133.2333,32.99,66,20,10.29,JP,1722314225
160,la gi,10.6667,107.7833,30.2,69,81,6.07,VN,1722314226
161,jalai nur,49.45,117.7,27.9,53,31,2.1,CN,1722314228
162,ambon,-3.6954,128.1814,26.08,89,40,1.54,ID,1722314229
163,carnarvon,-24.8667,113.6333,22.14,43,0,0.73,AU,1722314230
164,ormara,25.2088,64.6357,28.65,88,100,6.1,PK,1722314232
165,st. john's,47.5649,-52.7093,21.27,95,20,13.89,CA,1722314233
166,vilyuysk,63.7553,121.6247,18.4,39,3,5.85,RU,1722314235
167,gadzhiyevo,69.2551,33.3362,10.47,89,100,7.04,RU,1722314236
168,kiziltepe,37.1933,40.585,31.2,27,0,4.12,TR,1722314238
169,chonchi,-42.6128,-73.8092,5.07,81,100,1.12,CL,1722314240
170,vanino,49.0869,140.2543,16.9,68,74,4.32,RU,1722314242
171,isafjordur,66.0755,-23.124,6.82,94,100,3.22,IS,1722314243
172,kapa'a,22.0752,-159.319,23.94,86,100,3.6,US,1722314245
173,weligama,5.9667,80.4167,27.17,72,82,4.94,LK,1722314246
174,bilibino,68.0546,166.4372,12.01,48,97,1.0,RU,1722314247
175,stanley,54.868,-1.6985,10.95,100,0,0.51,GB,1722314248
176,san luis de la loma,17.2706,-100.8939,27.16,85,98,0.98,MX,1722314249
177,chegdomyn,51.1167,133.0167,29.51,41,2,1.64,RU,1722314251
178,margate,51.3813,1.3862,19.39,89,13,2.21,GB,1722314252
179,colares,38.7992,-9.4469,22.55,77,0,4.43,PT,1722314253
180,holualoa,19.6228,-155.9522,24.2,84,98,2.12,US,1722314255
181,mount isa,-20.7333,139.5,23.87,15,0,5.66,AU,1722314256
182,port lincoln,-34.7333,135.8667,14.67,46,60,4.91,AU,1722314257
183,tadine,-21.55,167.8833,22.7,71,97,3.04,NC,1722314258
184,tolanaro,-25.0319,46.9987,20.04,83,40,3.09,MG,1722314260
185,coahuayana de hidalgo,18.7,-103.6583,25.52,92,97,1.65,MX,1722314261
186,rawson,-43.3002,-65.1023,7.56,45,44,7.67,AR,1722314262
187,mangrol,21.1167,70.1167,28.63,83,99,6.44,IN,1722314263
188,quellon,-43.1167,-73.6167,6.19,75,100,3.12,CL,1722314265
189,al kharijah,25.4514,30.5464,30.54,24,98,3.19,EG,1722314266
190,monster,52.0258,4.175,18.94,83,13,1.54,NL,1722314267
191,mitu,1.1983,-70.1733,20.98,98,100,0.43,CO,1722314268
192,taoudenni,22.6783,-3.9836,35.14,30,11,4.95,ML,1722314269
193,ancud,-41.8697,-73.8203,5.55,74,100,3.07,CL,1722314271
194,weno,7.4515,151.8468,32.97,70,20,1.54,FM,1722314272
195,dhuusamarreeb,5.535,46.3861,25.54,62,58,10.39,SO,1722314273
196,tindouf,27.6711,-8.1474,29.25,32,0,5.14,DZ,1722314274
197,norfolk,42.1668,-71.2495,21.05,95,100,0.0,US,1722314275
198,kone,-21.0595,164.8658,21.97,72,98,3.81,NC,1722314277
199,matoury,4.8483,-52.3317,25.98,89,0,0.0,GF,1722314278
200,mariehamn,60.0973,19.9348,16.57,94,0,2.06,AX,1722314280
201,crane,31.3974,-102.3501,29.58,40,0,9.64,US,1722314283
202,kodinsk,58.6881,99.1844,28.99,40,41,2.46,RU,1722314284
203,port isabel,26.0734,-97.2086,29.02,85,0,5.66,US,1722314286
204,new norfolk,-42.7826,147.0587,12.18,56,97,0.97,AU,1722314287
205,tyukhtet,56.5389,89.3011,25.82,53,69,1.76,RU,1722314288
206,cafayate,-26.073,-65.9761,6.36,82,35,1.31,AR,1722314289
207,college,64.8569,-147.8028,12.99,83,75,4.63,US,1722314291
208,navolato,24.7672,-107.6944,31.1,80,0,1.72,MX,1722314292
209,tofol,5.3248,163.0078,28.87,70,3,3.17,FM,1722314293
210,wewak,-3.5534,143.6268,29.24,72,49,4.86,PG,1722314294
211,georgetown,5.4112,100.3354,32.96,58,20,3.09,MY,1722314148
212,primorsk,46.7348,36.3443,23.18,41,68,5.83,UA,1722314297
213,pangody,65.85,74.4859,20.88,76,100,1.56,RU,1722314298
214,umba,66.6871,34.3429,12.49,85,100,5.91,RU,1722314299
215,la passe,45.5549,-0.8967,22.13,80,100,3.33,FR,1722314300
216,hithadhoo,-0.6,73.0833,28.99,75,79,5.32,MV,1722314301
217,naze,28.3667,129.4833,31.51,64,7,2.14,JP,1722314303
218,bafq,31.6128,55.4107,34.28,19,2,6.13,IR,1722314304
219,ilulissat,69.2167,-51.1,4.01,93,100,0.0,GL,1722314305
220,de aar,-30.6497,24.0123,1.08,52,0,0.71,ZA,1722314306
221,kasongo-lunda,-6.4667,16.8167,15.94,78,7,0.74,CD,1722314307
222,traverse city,44.7631,-85.6206,21.3,97,100,1.57,US,1722314309
223,berehove,48.2056,22.6442,14.97,54,6,3.33,UA,1722314310
224,kununurra,-15.7667,128.7333,28.99,24,79,4.12,AU,1722314311
225,luanda,-8.8368,13.2343,19.0,82,30,1.54,AO,1722314313
226,guangyuan,32.442,105.823,31.45,52,30,1.89,CN,1722314314
227,vigan,17.5747,120.3869,31.07,78,100,5.59,PH,1722314315
228,port alfred,-33.5906,26.891,13.1,64,26,10.81,ZA,1722314316
229,mejit,10.2753,170.8646,28.08,81,84,8.5,MH,1722314317
230,berdigestyakh,62.0989,126.6992,19.37,42,32,6.02,RU,1722314319
231,mount gambier,-37.8333,140.7667,14.04,47,94,1.91,AU,1722314320
232,plesetsk,62.708,40.2916,14.09,86,100,1.85,RU,1722314322
233,udachny,66.4167,112.4,15.33,48,43,6.72,RU,1722314325
234,tucumcari,35.1717,-103.725,28.91,32,0,2.57,US,1722314327
235,seini,47.75,23.2833,14.79,87,0,0.0,RO,1722314329
236,mount pearl,47.5166,-52.7813,20.81,94,20,13.89,CA,1722314331
237,luderitz,-26.6481,15.1594,9.91,78,0,7.45,NA,1722314333
238,portland,45.5234,-122.6762,20.33,91,100,0.89,US,1722313457
239,fruitland,38.3221,-75.6202,24.96,85,0,3.09,US,1722314336
240,dakoro,14.5106,6.765,27.12,69,74,5.92,NE,1722314337
241,nuku'alofa,-21.1333,-175.2,22.19,64,40,6.69,TO,1722314339
242,piney green,34.716,-77.3202,26.64,81,100,0.0,US,1722314340
243,fortuna,40.5982,-124.1573,16.66,94,75,2.57,US,1722314341
244,happy valley-goose bay,53.3168,-60.3315,21.17,64,20,3.09,CA,1722314343
245,itoman,26.1247,127.6694,32.01,74,40,5.66,JP,1722314344
246,port elizabeth,-33.918,25.5701,12.16,75,0,7.2,ZA,1722314346
247,pizhou,34.3114,117.9503,35.12,60,1,4.58,CN,1722314347
248,turar ryskulov,42.5333,70.3333,31.87,15,32,4.81,KZ,1722314348
249,kharp,66.8014,65.8081,17.33,91,100,3.41,RU,1722314349
250,at taj,24.2049,23.2857,28.67,20,84,2.48,LY,1722314351
251,kavieng,-2.5744,150.7967,28.03,78,95,3.35,PG,1722314352
252,galveston,29.3669,-94.9669,28.87,87,68,0.45,US,1722314354
253,kapit,2.0167,112.9333,30.19,79,40,1.4,MY,1722314357
254,arkalyk,50.2486,66.9114,26.22,30,71,8.34,KZ,1722314359
255,kiama,-34.6833,150.8667,15.88,57,95,2.68,AU,1722314360
256,miyako,39.6367,141.9525,28.78,64,54,2.18,JP,1722314362
257,masterton,-40.9597,175.6575,7.83,97,84,4.1,NZ,1722314363
258,slave lake,55.2834,-114.769,15.99,82,0,2.57,CA,1722314364
259,santana,-0.0583,-51.1817,26.1,94,40,2.06,BR,1722314365
260,porto novo,6.4965,2.6036,24.9,88,93,3.67,BJ,1722314366
261,prince rupert,54.3161,-130.3201,15.05,100,100,2.06,CA,1722314368
262,ishimbay,53.4545,56.0415,18.69,89,100,5.03,RU,1722314369
263,rongelap,11.1635,166.8941,28.02,79,76,7.76,MH,1722314370
264,iskateley,67.6803,53.1512,16.29,65,99,5.13,RU,1722314371
265,nueva esperanza,15.2667,-87.6,25.79,96,72,0.76,HN,1722314372
266,pisco,-13.7,-76.2167,14.03,88,100,2.06,PE,1722314374
267,hirara,24.8,125.2833,32.15,79,75,4.63,JP,1722314375
268,ust-nera,64.5667,143.2,17.05,67,99,2.32,RU,1722314376
269,alotau,-10.3069,150.4462,25.08,86,91,2.68,PG,1722314378
270,pangai,-19.8,-174.35,25.06,50,40,7.2,TO,1722314379
271,san antonio de pale,-1.4014,5.6325,22.67,74,98,3.05,GQ,1722314380
272,akrehamn,59.2667,5.1833,17.45,82,75,4.63,NO,1722314381
273,cape coast,5.1053,-1.2466,22.7,93,96,3.62,GH,1722314382
274,al ghayzah,16.2079,52.176,27.36,80,100,0.83,YE,1722314384
275,tete,-16.1564,33.5867,21.05,73,75,3.09,MZ,1722314385
276,queanbeyan,-35.35,149.2333,12.47,47,5,6.17,AU,1722314386
277,punta arenas,-53.15,-70.9167,2.06,93,20,4.12,CL,1722314387
278,colonia,50.9333,6.95,17.76,82,0,3.09,DE,1722314388
279,terenozek,45.05,64.9833,31.19,20,100,5.44,KZ,1722314390
280,aykhal,66.0,111.5,15.35,47,36,5.98,RU,1722314391
281,nampula,-15.1165,39.2666,17.97,94,40,1.54,MZ,1722314392
282,beinamar,8.6698,15.3813,20.83,97,100,1.92,TD,1722314393
283,wilmington island,32.0036,-80.9737,24.99,88,75,0.0,US,1722314394
284,arraial do cabo,-22.9661,-42.0278,21.72,85,72,8.5,BR,1722314396
285,saipan,15.1355,145.701,32.39,70,0,5.14,MP,1722314397
286,fale old settlement,-9.3852,-171.2468,26.8,73,100,10.75,TK,1722314398
287,bago,17.3367,96.4797,27.91,79,100,2.64,MM,1722314399
288,borba,-4.3878,-59.5939,24.67,52,18,1.27,BR,1722314400
289,kruisfontein,-34.0033,24.7314,8.82,77,87,7.48,ZA,1722314402
290,murzuq,25.9155,13.9184,25.1,33,10,4.47,LY,1722314403
291,saint-philippe,-21.3585,55.7679,21.77,69,3,2.89,RE,1722314404
292,boju,7.3783,7.9112,21.76,96,98,2.44,NG,1722314405
293,kulu,39.0951,33.0799,21.88,36,0,3.9,TR,1722314407
294,paita,-5.0892,-81.1144,17.32,85,29,4.75,PE,1722314408
295,pyt-yakh,60.7499,72.8582,19.58,56,52,3.97,RU,1722314409
296,east london,-33.0153,27.9116,12.52,40,0,5.66,ZA,1722314410
297,ostersund,63.1792,14.6357,10.25,100,62,1.54,SE,1722314411
298,saint-joseph,-21.3667,55.6167,21.37,62,1,2.38,RE,1722314413
299,nenjiang,49.1833,125.2167,32.44,39,54,2.46,CN,1722314414
300,giyani,-23.3025,30.7187,12.06,81,0,0.84,ZA,1722314415
301,tsiombe,-25.3,45.4833,19.34,78,100,1.84,MG,1722314416
302,lamu,-2.2717,40.902,25.26,76,80,6.24,KE,1722314418
303,zaozersk,69.4005,32.4476,9.69,93,100,4.95,RU,1722314419
304,kutulik,53.3508,102.7839,25.35,54,100,3.28,RU,1722314420
305,shetpe,44.1667,52.1167,27.72,25,0,4.33,KZ,1722314421
306,yoko,5.5333,12.3167,17.95,99,100,1.57,CM,1722314423
307,pimentel,-6.8367,-79.9342,17.16,88,40,6.17,PE,1722314424
308,rabaul,-4.1967,152.1721,29.14,72,96,4.24,PG,1722314425
309,atafu village,-8.5421,-172.5159,27.49,73,97,11.1,TK,1722314426
310,remire-montjoly,4.9167,-52.2667,26.02,89,0,0.0,GF,1722314428
311,flin flon,54.7682,-101.865,19.68,60,85,2.6,CA,1722314429
312,sao vicente,-23.9631,-46.3919,19.04,26,100,6.61,BR,1722314430
313,mandan,46.8267,-100.8896,18.99,85,40,0.45,US,1722314151
314,antsiranana,-12.2787,49.2917,22.42,68,20,3.09,MG,1722314432
315,yaring,6.8662,101.3689,30.16,60,83,1.3,TH,1722314433
316,mana,5.6592,-53.7767,24.47,89,53,4.18,GF,1722314435
317,chul'man,56.8479,124.9104,16.29,96,100,2.04,RU,1722314436
318,kavaratti,10.5669,72.642,28.3,82,100,8.94,IN,1722314437
319,malsch,48.8833,8.3333,17.06,90,28,0.72,DE,1722314438
320,vorgashor,67.5833,63.95,21.07,68,96,3.99,RU,1722314441
321,bojnurd,37.4747,57.329,20.97,68,20,3.09,IR,1722314442
322,miracema do tocantins,-9.5618,-48.3967,23.66,42,0,1.14,BR,1722314444
323,launceston,-41.45,147.1667,12.41,62,100,2.57,AU,1722314192
324,melekeok village,7.4957,134.6367,32.31,66,75,4.63,PW,1722314446
325,maloye ganyushkino,46.6,49.2667,28.68,41,0,6.73,KZ,1722314447
326,albert,50.0009,2.651,19.29,77,0,2.57,FR,1722314448
327,batamshinskiy,50.5594,58.2747,25.03,39,72,8.44,KZ,1722314450
328,gunjur,13.2019,-16.7339,26.04,94,75,2.06,GM,1722314451
329,watford city,47.8022,-103.2832,22.92,64,40,5.66,US,1722314319
330,hermansverk,61.1846,6.8502,14.25,82,40,1.03,NO,1722314453
331,zhosaly,45.4878,64.0781,30.44,21,29,2.59,KZ,1722314454
332,banjarmasin,-3.3244,114.591,33.08,50,38,2.57,ID,1722314171
333,iquitos,-3.7481,-73.2472,24.02,94,0,0.0,PE,1722314457
334,guiglo,6.5456,-7.4966,20.73,98,100,1.21,CI,1722314458
335,butterworth,5.3991,100.3638,33.02,58,20,3.09,MY,1722314459
336,marijampole,54.5667,23.35,13.94,83,77,6.55,LT,1722314462
337,nova sintra,14.8667,-24.7167,25.07,76,59,6.42,CV,1722314463
338,tvoroyri,61.5556,-6.8111,10.26,90,81,10.17,FO,1722314465
339,afaahiti,-17.75,-149.2833,19.93,90,86,7.56,PF,1722314466
340,puebloviejo,10.9938,-74.2844,30.1,66,20,1.54,CO,1722314467
341,fuerte olimpo,-21.0415,-57.8738,17.43,81,100,2.97,PY,1722314468
342,pangoa,-12.1167,-73.0,19.32,98,56,1.66,PE,1722314469
343,laguna,38.421,-121.4238,23.16,62,0,4.12,US,1722314471
344,minas de marcona,-15.2119,-75.1103,10.75,86,9,2.0,PE,1722314472
345,alta,69.9689,23.2717,12.59,84,75,12.52,NO,1722314474
346,illizi,26.4833,8.4667,25.89,21,0,2.0,DZ,1722314476
347,lively,46.4334,-81.1498,22.51,88,71,1.46,CA,1722314477
348,qaisumah,28.3112,46.1273,32.98,14,0,5.14,SA,1722314479
349,inhapim,-19.5492,-42.12,12.33,63,0,1.55,BR,1722314480
350,prainha,-1.8,-53.48,25.07,71,100,1.21,BR,1722314481
351,baihe,22.15,107.2333,28.65,76,100,0.88,CN,1722314483
352,yarovoye,52.9273,78.58,26.76,38,35,3.05,RU,1722314485
353,fuyu,45.1833,124.8167,32.38,44,62,2.92,CN,1722314486
354,las tablas,7.7667,-80.2833,26.73,87,100,3.89,PA,1722314456
355,ayr,55.4627,-4.6339,13.99,88,100,2.06,GB,1722314489
356,antalaha,-14.9003,50.2788,22.6,65,9,2.75,MG,1722314490
357,tughyl,47.7252,84.2063,23.52,50,96,1.7,KZ,1722314491
358,carutapera,-1.195,-46.02,23.9,93,9,2.66,BR,1722314493
359,lorengau,-2.0226,147.2712,28.65,77,84,4.71,PG,1722314494
360,buala,-8.145,159.5921,25.91,86,99,3.82,SB,1722314495
361,kangal,39.2335,37.3911,17.06,56,0,2.02,TR,1722314496
362,broome,42.2506,-75.833,21.48,80,38,1.46,US,1722314497
363,puerto maldonado,-12.6,-69.1833,21.99,83,32,1.23,PE,1722314499
364,alto barinas,8.5931,-70.2261,22.87,96,100,1.96,VE,1722314500
365,barberino di mugello,44.0027,11.2371,24.96,60,0,3.17,IT,1722314501
366,chestertown,39.209,-76.0666,26.12,91,75,6.66,US,1722314502
367,san fernando,15.0286,120.6898,32.85,55,91,4.32,PH,1722314503
368,gizo,-8.103,156.8419,27.15,80,100,6.83,SB,1722314505
369,upington,-28.4478,21.2561,2.21,60,0,0.51,ZA,1722314506
370,colchani,-20.3,-66.9333,2.7,27,0,2.58,BO,1722314507
371,trincomalee,8.5711,81.2335,30.51,62,100,6.81,LK,1722314508
372,vinton,37.281,-79.897,23.36,94,40,2.57,US,1722314414
373,turpan,42.9333,89.1667,44.15,12,3,2.55,CN,1722314511
374,antonio enes,-16.2325,39.9086,22.53,66,0,1.56,MZ,1722314512
375,kailua-kona,19.6406,-155.9956,26.27,86,97,0.45,US,1722314241
376,mermoz boabab,14.7065,-17.4758,26.31,78,99,3.82,SN,1722314514
377,formosa do rio preto,-11.0483,-45.1931,20.22,57,24,1.58,BR,1722314515
378,albu kamal,34.45,40.9186,32.5,23,0,7.98,SY,1722314517
379,cidreira,-30.1811,-50.2056,12.7,74,18,4.45,BR,1722314518
380,sulphur springs,33.1385,-95.6011,28.97,70,0,3.09,US,1722314519
381,quelimane,-17.8786,36.8883,19.97,94,100,1.54,MZ,1722314520
382,inari,68.906,27.0288,13.11,83,100,4.3,FI,1722314522
383,praia da vitoria,38.7333,-27.0667,23.2,94,75,0.47,PT,1722314523
384,tamale,9.4008,-0.8393,22.95,91,100,3.4,GH,1722314524
385,lieksa,63.3167,30.0167,15.24,72,57,1.94,FI,1722314525
386,saurimo,-9.6608,20.3916,13.03,25,5,1.77,AO,1722314527
387,spring creek,40.7266,-115.5859,21.83,19,0,0.45,US,1722314528
388,amasra,41.7463,32.3863,18.03,58,0,1.34,TR,1722314529
389,goronyo,13.4423,5.6763,25.64,80,96,5.14,NG,1722314530
390,kuqa,41.7278,82.9364,36.18,17,81,5.6,CN,1722314531
391,barabai,-2.5833,115.3833,34.88,44,24,1.18,ID,1722314533
392,kuanda,56.3161,116.0806,26.78,50,100,2.37,RU,1722314534
393,bagepalli,13.7847,77.7931,26.39,66,100,9.38,IN,1722314535
394,praia,14.9215,-23.5087,25.3,65,75,4.63,CV,1722314537
395,taltal,-25.4,-70.4833,14.15,75,57,0.61,CL,1722314538
396,north bend,43.4065,-124.2243,18.84,99,100,2.43,US,1722314539
397,phalaborwa,-23.943,31.1411,16.6,80,0,1.39,ZA,1722314541
398,lebu,-37.6167,-73.65,8.0,71,100,1.44,CL,1722314543
399,ndjole,-0.1783,10.7649,21.41,86,88,1.41,GA,1722314544
400,cova figueira,14.8905,-24.2934,18.6,79,62,4.24,CV,1722314545
401,kourou,5.1552,-52.6478,26.03,96,54,2.18,GF,1722314546
402,chancay,-11.5714,-77.2672,16.44,88,26,2.12,PE,1722314548
403,natal,-5.795,-35.2094,23.36,94,20,1.54,BR,1722314549
404,san carlos,9.6612,-68.5827,22.46,98,100,1.33,VE,1722314550
405,ghadamis,30.1337,9.5007,24.63,38,0,4.27,LY,1722314551
406,eureka,40.8021,-124.1637,16.81,92,79,0.45,US,1722314552
407,muisne,0.6,-80.0333,24.03,92,100,5.25,EC,1722314554
408,graaff-reinet,-32.2522,24.5308,4.12,59,4,0.47,ZA,1722314555
409,suva,-18.1416,178.4415,25.71,57,40,7.2,FJ,1722314556
410,pirallahi,40.4723,50.333,27.08,55,0,4.49,AZ,1722314557
411,chibougamau,49.9168,-74.3659,17.79,82,0,0.0,CA,1722314558
412,ago-are,8.5,3.4167,20.77,98,100,1.91,NG,1722314560
413,santa cruz do sul,-29.7175,-52.4258,7.16,92,83,1.34,BR,1722314561
414,box elder,41.5005,-112.8764,29.03,45,6,3.99,US,1722314562
415,talitsy,56.5289,42.3344,17.4,85,26,2.3,RU,1722314563
416,mysen,59.5535,11.3258,14.06,95,21,0.76,NO,1722314564
417,luau,-10.7073,22.2247,14.08,24,14,1.95,AO,1722314566
418,yuzhno-kurilsk,44.0306,145.8556,15.81,96,100,3.49,RU,1722314567
419,geraldton,-28.7667,114.6,21.23,68,40,1.54,AU,1722314527
420,suwayr,30.1171,40.3893,29.52,27,70,2.35,SA,1722314570
421,bubaque,11.2833,-15.8333,26.52,84,95,5.16,GW,1722314571
422,al hufuf,25.3646,49.5653,35.19,11,0,6.69,SA,1722314572
423,agryz,56.5203,52.9942,18.22,83,100,1.43,RU,1722314573
424,kerikeri,-35.2268,173.9474,16.62,87,63,2.68,NZ,1722314574
425,castillos,-34.1667,-53.8333,2.96,78,26,0.58,UY,1722314576
426,enewetak,11.3474,162.3373,28.81,74,13,2.12,MH,1722314577
427,as sulayyil,20.4607,45.5779,33.14,18,49,10.77,SA,1722314578
428,hit,33.6416,42.8251,35.36,17,0,7.87,IQ,1722314579
429,san andres,12.5847,-81.7006,29.01,79,20,7.2,CO,1722314581
430,sredets,42.3475,27.179,25.06,32,0,3.09,BG,1722314582
431,galliano,29.4422,-90.2992,27.78,83,0,0.0,US,1722314583
432,waddan,29.1614,16.139,23.11,69,0,1.0,LY,1722314584
433,lompoc,34.6391,-120.4579,15.08,95,100,4.12,US,1722314585
434,morehead city,34.7229,-76.726,27.23,70,100,3.13,US,1722314587
435,laredo,27.5064,-99.5075,31.16,62,0,8.23,US,1722314588
436,ad darb,17.7229,42.2526,35.71,39,7,5.5,SA,1722314589
437,khorugh,37.4897,71.553,23.03,30,69,0.8,TJ,1722314590
438,oak bay,48.4496,-123.3026,16.71,96,100,2.57,CA,1722314592
439,shigony,53.3875,48.6777,22.05,71,61,6.52,RU,1722314594
440,riga,57.0,24.0833,18.35,89,75,4.63,LV,1722314595
441,vodnyy,63.5046,53.4095,21.48,52,26,1.6,RU,1722314597
442,casimiro de abreu,-22.4806,-42.2042,21.88,88,70,1.45,BR,1722314599
443,vila velha,-20.3297,-40.2925,22.19,90,0,2.24,BR,1722314600
444,al bayda',32.7627,21.7551,21.49,87,0,3.85,LY,1722314602
445,mayya,61.7333,130.2811,15.62,86,99,5.44,RU,1722314603
446,egilsstadir,65.2653,-14.3948,8.95,87,100,2.06,IS,1722314604
447,tevriz,57.509,72.4042,14.61,93,90,2.52,RU,1722314605
448,badger,64.8,-147.5333,12.95,85,75,4.12,US,1722314608
449,nieuw amsterdam,5.8833,-55.0833,24.26,92,87,3.02,SR,1722314609
450,santiago del torno,-17.9833,-63.3833,16.1,76,66,3.19,BO,1722314612
451,leksand,60.7339,15.0032,12.32,69,3,0.41,SE,1722314613
452,sao miguel dos campos,-9.7811,-36.0936,21.72,95,0,0.87,BR,1722314614
453,sandnessjoen,66.0217,12.6316,13.06,88,20,2.06,NO,1722314615
454,cobram,-35.9167,145.65,11.61,55,60,1.54,AU,1722314616
455,sorong,-0.8833,131.25,30.34,64,94,3.12,ID,1722314618
456,wynyard,-41.0,145.7167,9.7,74,88,1.82,AU,1722314619
457,chicoana,-25.1009,-65.5331,7.25,78,49,1.31,AR,1722314620
458,junagarh,19.8667,82.9333,30.33,69,92,2.88,IN,1722314621
459,greenville,35.6127,-77.3663,24.09,94,100,2.57,US,1722314624
460,ceylanpinar,36.8472,40.05,32.09,24,0,2.11,TR,1722314625
461,port saint john's,-31.6229,29.5448,11.81,43,0,2.94,ZA,1722314626
462,sao jose da coroa grande,-8.8978,-35.1478,23.27,87,16,2.59,BR,1722314627
463,porto murtinho,-21.6989,-57.8825,16.2,88,100,3.1,BR,1722314629
464,sabang,5.8933,95.3214,28.28,76,100,3.37,ID,1722314630
465,le moule,16.3332,-61.3473,26.02,76,0,5.51,GP,1722314631
466,vernon,50.2581,-119.2691,19.96,77,98,2.06,CA,1722314632
467,pago pago,-14.2781,-170.7025,25.55,65,40,11.32,AS,1722314633
468,saudarkrokur,65.7461,-19.6394,11.07,82,94,1.91,IS,1722314635
469,flagstaff,35.1981,-111.6513,21.4,40,53,0.45,US,1722314633
470,bonthe,7.5264,-12.505,24.64,88,100,5.26,SL,1722314637
471,ilomantsi,62.6716,30.9328,14.83,74,100,1.61,FI,1722314638
472,abbeville,50.1,1.8333,18.61,87,20,1.66,FR,1722314639
473,ciudad victoria,23.7333,-99.1333,24.26,87,11,3.15,MX,1722314641
474,katabu,-4.9333,122.5167,30.61,55,24,5.25,ID,1722314642
475,gniewkowo,52.8946,18.4079,14.45,98,42,3.44,PL,1722314643
476,ulladulla,-35.35,150.4667,14.87,58,70,7.69,AU,1722314644
477,vendome,47.8,1.0667,18.87,99,68,1.95,FR,1722314645
478,zhangjiakou shi xuanhua qu,40.6103,115.0447,21.43,93,100,2.07,CN,1722314647
479,ibshaway,29.358,30.6814,27.49,55,0,3.7,EG,1722314648
480,lepe,37.2548,-7.2043,22.88,95,0,1.96,ES,1722314649
481,ilhabela,-23.7781,-45.3581,18.32,94,95,3.53,BR,1722314650
482,gaspe,48.8334,-64.4819,26.12,53,0,5.66,CA,1722314652
483,buncrana,55.1333,-7.45,9.55,98,15,2.12,IE,1722314653
484,haiku-pauwela,20.9219,-156.3051,25.12,70,20,8.75,US,1722314654
485,shinyanga,-3.6667,33.4333,21.79,48,43,1.68,TZ,1722314655
486,tucuma,-0.1833,-50.05,24.54,91,10,2.87,BR,1722314656
487,undurkhaan,47.3194,110.6556,27.09,47,85,0.21,MN,1722314659
488,ketchikan,55.3422,-131.6461,16.26,82,100,4.63,US,1722314660
489,san angelo,31.4638,-100.437,29.74,60,0,4.02,US,1722314662
490,makarov,48.6333,142.8,16.62,80,100,2.0,RU,1722314664
491,zhanaozen,43.3,52.8,27.92,29,0,4.34,KZ,1722314665
492,lazaro cardenas,17.9583,-102.2,27.54,82,100,0.71,MX,1722314666
493,bongor,10.2806,15.3722,22.76,87,100,2.86,TD,1722314667
494,okhotsk,59.3833,143.3,13.98,65,97,4.93,RU,1722314670
495,brandon,27.9378,-82.2859,27.23,92,0,0.45,US,1722314671
496,lingyuan,41.24,119.4011,21.65,92,100,1.26,CN,1722314672
497,bosaso,11.2842,49.1816,35.99,38,0,9.77,SO,1722314673
498,dunhua,43.3725,128.2425,27.07,70,27,3.49,CN,1722314675
499,tazacorte,28.629,-17.9293,22.54,91,20,5.14,ES,1722314676
500,dakhla,23.6848,-15.958,19.44,95,6,7.99,EH,1722314677
501,simpang,-1.2667,104.0833,35.21,39,12,2.42,ID,1722314678
502,manokwari,-0.8667,134.0833,28.98,67,48,3.28,ID,1722314679
503,weining,26.85,104.2333,20.81,78,100,4.13,CN,1722314681
504,penaflor,-33.6167,-70.9167,15.21,41,100,2.1,CL,1722314682
505,ippy,6.2679,21.2247,21.14,97,100,1.59,CF,1722314683
506,noosa heads,-26.3833,153.15,19.63,56,0,8.97,AU,1722314661
507,idri,27.5,13.2667,24.65,44,0,3.74,LY,1722314685
508,eyl,7.9803,49.8164,27.54,61,32,12.07,SO,1722314688
509,narasannapeta,18.4167,84.05,29.79,72,100,0.82,IN,1722314690
510,bardai,11.65,7.2333,20.6,95,100,4.22,NG,1722314692
511,senador jose porfirio,-2.5908,-51.9542,25.29,69,62,1.72,BR,1722314693
512,dudinka,69.4058,86.1778,25.98,33,68,7.26,RU,1722314694
513,oltinko'l,40.8011,72.1634,36.62,15,2,3.28,UZ,1722314695
514,swakopmund,-22.6833,14.5333,9.47,86,3,0.61,NA,1722314696
515,okulovka,58.4008,33.2908,14.44,83,17,3.28,RU,1722314698
516,zhangwan,26.7114,119.5919,31.67,67,76,0.87,CN,1722314699
517,colby,39.3958,-101.0524,26.42,61,41,4.03,US,1722314554
518,babayevo,59.3936,35.9371,15.23,69,96,3.33,RU,1722314701
519,taroudant,30.4703,-8.877,19.06,81,0,2.65,MA,1722314702
520,tamanrasset,22.785,5.5228,23.95,73,40,2.06,DZ,1722314705
521,prado,-17.3411,-39.2208,22.74,89,5,3.39,BR,1722314706
522,siirt,37.9326,41.9403,28.08,30,0,2.06,TR,1722314707
523,hasaki,35.7333,140.8333,36.27,75,31,3.82,JP,1722314708
524,tucurui,-3.7661,-49.6725,23.05,59,16,1.01,BR,1722314710
525,gisborne,-38.6533,178.0042,13.51,87,100,1.52,NZ,1722314711
526,bamboo flat,11.7,92.7167,30.05,79,40,4.63,IN,1722314712
527,ipora,-16.4419,-51.1178,22.15,37,65,1.49,BR,1722314714
528,indore,22.7179,75.8333,24.1,94,100,3.6,IN,1722314716
529,alofi,-19.0595,-169.9187,21.94,56,20,9.26,NU,1722314717
530,mahina,-17.5065,-149.489,20.87,94,75,7.2,PF,1722314719
531,leshan,29.5623,103.7639,28.66,66,100,1.15,CN,1722314720
532,kisi,9.0833,3.85,21.21,97,100,2.36,NG,1722314721
533,sarmiento,-45.5882,-69.07,3.87,48,79,2.44,AR,1722314723
534,hamilton,39.1834,-84.5333,25.64,86,92,1.79,US,1722314724
535,bethanie,-26.4833,17.15,5.65,48,23,2.41,NA,1722314725
536,esquipulas,14.5667,-89.35,19.44,99,100,2.01,GT,1722314726
537,watampone,-4.5386,120.3279,29.39,66,28,4.14,ID,1722314728
538,nemuro,43.3236,145.575,14.53,95,100,11.99,JP,1722314729
539,newman,37.3138,-121.0208,25.99,62,0,0.45,US,1722314730
540,wotho,10.1657,166.0102,28.39,79,48,4.7,MH,1722314731
541,yairipok,24.6667,94.0667,26.92,91,100,1.62,IN,1722314732
542,vysokaya gora,55.9128,49.3017,18.1,71,86,1.46,RU,1722314734
543,champerico,14.3,-91.9167,25.63,90,100,4.51,GT,1722314735
544,nouadhibou,20.931,-17.0347,20.99,83,71,5.66,MR,1722314736
545,east end,34.5507,-92.341,28.94,88,4,2.76,US,1722314737
546,namibe,-15.1961,12.1522,16.58,88,93,2.25,AO,1722314740
547,leninsk,48.7119,45.1994,26.34,50,8,2.42,RU,1722314741
548,coyhaique,-45.5752,-72.0662,-1.73,92,100,2.19,CL,1722314742
549,cestos city,5.46,-9.5828,24.49,83,100,4.93,LR,1722314744
550,tannum sands,-23.9504,151.3693,22.08,30,0,4.12,AU,1722314745
551,sinabang,2.4803,96.3801,30.8,64,90,2.36,ID,1722314746
552,lesogorsk,56.0458,99.5136,27.54,46,100,1.3,RU,1722314749
553,kyren,51.6828,102.1408,26.0,63,69,2.61,RU,1722314750
554,salmon arm,50.6998,-119.3024,20.24,94,99,0.51,CA,1722314751
555,mineral wells,32.8085,-98.1128,29.59,63,0,4.12,US,1722314655
556,birobidzhan,48.8,132.95,26.7,58,8,2.53,RU,1722314753
557,shalya,57.2471,58.7298,15.46,86,97,2.68,RU,1722314755
558,ha tien,10.3833,104.4833,28.46,74,100,4.63,VN,1722314756
559,gandi,12.9636,5.7434,24.59,82,67,4.57,NG,1722314758
560,cartagena del chaira,1.3349,-74.8429,20.94,98,54,0.98,CO,1722314759
561,ebon,4.582,168.6964,28.29,74,81,4.08,MH,1722314761
562,turabah,21.2141,41.6331,30.31,19,59,7.17,SA,1722314762
563,boali,4.8005,18.1275,21.12,94,97,1.41,CF,1722314763
564,eydhafushi,5.1033,73.0708,28.3,83,100,3.64,MV,1722314764
565,luganville,-15.5333,167.1667,25.72,68,32,4.71,VU,1722314765
566,acarau,-2.8856,-40.12,23.71,90,79,5.09,BR,1722314767
567,faridpur,23.6,89.8333,31.16,71,100,5.01,BD,1722314769
568,nalut,30.3333,10.85,23.15,57,0,4.63,LY,1722314770
569,thinadhoo,0.5333,72.9333,29.14,74,91,5.78,MV,1722314771
570,kaspiyskiy,45.3929,47.3707,27.78,45,0,6.73,RU,1722314773
571,micheweni,-4.9667,39.8333,24.86,81,81,4.38,TZ,1722314774
572,greymouth,-42.4667,171.2,8.67,62,95,6.36,NZ,1722314775
573,inhambane,-23.865,35.3833,13.99,94,20,0.0,MZ,1722314776
574,sarupathar,26.1984,93.8094,29.12,63,94,3.22,IN,1722314778
575,lospalos,-8.5186,127.0025,24.74,78,74,5.59,TL,1722314779
576,labytnangi,66.6572,66.4183,17.51,91,100,5.34,RU,1722314781
577,yelizovo,53.1873,158.3805,15.08,88,75,3.0,RU,1722314782
578,rucava,56.1585,21.1619,17.95,74,35,5.27,LV,1722314783
579,quepos,9.4236,-84.1652,26.61,84,100,0.91,CR,1722314784
580,fort mcmurray,56.7268,-111.381,19.77,63,40,4.12,CA,1722314498
581,nazilli,37.9163,28.3223,21.61,36,0,1.69,TR,1722314787
582,banyo,6.75,11.8167,17.51,97,100,1.35,CM,1722314788
583,westport,41.1415,-73.3579,23.55,89,0,1.54,US,1722314789
584,lewistown,40.5992,-77.5714,24.23,91,0,0.0,US,1722314790
585,alpine,32.835,-116.7664,19.09,75,0,3.6,US,1722314722
586,turinsk,58.0458,63.696,14.85,84,84,3.09,RU,1722314793
587,messini,37.0511,22.0078,27.88,60,0,2.06,GR,1722314794
588,jacksonville,30.3322,-81.6556,26.25,86,75,5.14,US,1722314645
589,broken hill,-31.95,141.4333,14.41,45,27,4.6,AU,1722314796
590,darnah,32.767,22.6367,26.91,79,0,9.11,LY,1722314797
591,loango,-4.6719,11.8312,21.81,88,75,2.06,CG,1722314799
592,selfoss,63.9331,-20.9971,9.96,91,100,2.46,IS,1722314800
